[
  {
    "city": "Paris",
    "country": "France",
    "country_code": "FR",
    "latitude": 48.8566,
    "longitude": 2.3522,
    "population": 2161000
  },
  {
    "city": "London",
    "country": "United Kingdom",
    "country_code": "GB",
    "latitude": 51.5074,
    "longitude": -0.1278,
    "population": 8982000
  },
  {
    "city": "Berlin",
    "country": "Germany",
    "country_code": "DE",
    "latitude": 52.5200,
    "longitude": 13.4050,
    "population": 3645000
  },
  {
    "city": "Madrid",
    "country": "Spain",
    "country_code": "ES",
    "latitude": 40.4168,
    "longitude": -3.7038,
    "population": 3223000
  },
  {
    "city": "Rome",
    "country": "Italy",
    "country_code": "IT",
    "latitude": 41.9028,
    "longitude": 12.4964,
    "population": 2873000
  },
  {
    "city": "Amsterdam",
    "country": "Netherlands",
    "country_code": "NL",
    "latitude": 52.3676,
    "longitude": 4.9041,
    "population": 821000
  },
  {
    "city": "Vienna",
    "country": "Austria",
    "country_code": "AT",
    "latitude": 48.2082,
    "longitude": 16.3738,
    "population": 1911000
  },
  {
    "city": "Stockholm",
    "country": "Sweden",
    "country_code": "SE",
    "latitude": 59.3293,
    "longitude": 18.0686,
    "population": 975000
  },
  {
    "city": "Copenhagen",
    "country": "Denmark",
    "country_code": "DK",
    "latitude": 55.6761,
    "longitude": 12.5683,
    "population": 602000
  },
  {
    "city": "Brussels",
    "country": "Belgium",
    "country_code": "BE",
    "latitude": 50.8503,
    "longitude": 4.3517,
    "population": 1209000
  }
]